[
  {
    "id": 1,
    "name": "John Smith",
    "experience": 5,
    "lat": 51.5074,
    "lng": -0.1278,
    "city": "London",
    "country": "United Kingdom"
  },
  {
    "id": 2,
    "name": "Emma Johnson",
    "experience": 3,
    "lat": 51.5225,
    "lng": -0.1539,
    "city": "London",
    "country": "United Kingdom"
  },
  {
    "id": 3,
    "name": "Michael Brown",
    "experience": 7,
    "lat": 51.4893,
    "lng": -0.1334,
    "city": "London",
    "country": "United Kingdom"
  },
  {
    "id": 4,
    "name": "Sarah Davis",
    "experience": 4,
    "lat": 40.7128,
    "lng": -74.006,
    "city": "New York",
    "country": "United States"
  },
  {
    "id": 5,
    "name": "David Wilson",
    "experience": 6,
    "lat": 40.7484,
    "lng": -73.9857,
    "city": "New York",
    "country": "United States"
  },
  {
    "id": 6,
    "name": "Emily Taylor",
    "experience": 2,
    "lat": 40.7829,
    "lng": -73.9654,
    "city": "New York",
    "country": "United States"
  },
  {
    "id": 7,
    "name": "Robert Martinez",
    "experience": 8,
    "lat": 48.8566,
    "lng": 2.3522,
    "city": "Paris",
    "country": "France"
  },
  {
    "id": 8,
    "name": "Sophie Dubois",
    "experience": 5,
    "lat": 48.8737,
    "lng": 2.295,
    "city": "Paris",
    "country": "France"
  },
  {
    "id": 9,
    "name": "Pierre Lefebvre",
    "experience": 3,
    "lat": 48.8584,
    "lng": 2.2945,
    "city": "Paris",
    "country": "France"
  },
  {
    "id": 10,
    "name": "Hiroshi Tanaka",
    "experience": 9,
    "lat": 35.6762,
    "lng": 139.6503,
    "city": "Tokyo",
    "country": "Japan"
  },
  {
    "id": 11,
    "name": "Yuki Sato",
    "experience": 4,
    "lat": 35.6895,
    "lng": 139.6917,
    "city": "Tokyo",
    "country": "Japan"
  },
  {
    "id": 12,
    "name": "Akira Suzuki",
    "experience": 6,
    "lat": 35.71,
    "lng": 139.8107,
    "city": "Tokyo",
    "country": "Japan"
  },
  {
    "id": 13,
    "name": "Carlos Mendes",
    "experience": 7,
    "lat": -23.5505,
    "lng": -46.6333,
    "city": "São Paulo",
    "country": "Brazil"
  },
  {
    "id": 14,
    "name": "Fernanda Oliveira",
    "experience": 3,
    "lat": -23.5616,
    "lng": -46.6555,
    "city": "São Paulo",
    "country": "Brazil"
  },
  {
    "id": 15,
    "name": "Rafael Santos",
    "experience": 5,
    "lat": -23.5733,
    "lng": -46.6417,
    "city": "São Paulo",
    "country": "Brazil"
  },
  {
    "id": 16,
    "name": "Rajesh Kumar",
    "experience": 6,
    "lat": 28.6139,
    "lng": 77.209,
    "city": "New Delhi",
    "country": "India"
  },
  {
    "id": 17,
    "name": "Aarav Patel",
    "experience": 4,
    "lat": 28.7041,
    "lng": 77.1025,
    "city": "New Delhi",
    "country": "India"
  },
  {
    "id": 18,
    "name": "Priya Sharma",
    "experience": 3,
    "lat": 28.5355,
    "lng": 77.391,
    "city": "New Delhi",
    "country": "India"
  },
  {
    "id": 19,
    "name": "Chen Wei",
    "experience": 7,
    "lat": 31.2304,
    "lng": 121.4737,
    "city": "Shanghai",
    "country": "China"
  },
  {
    "id": 20,
    "name": "Liu Yang",
    "experience": 5,
    "lat": 31.2222,
    "lng": 121.4581,
    "city": "Shanghai",
    "country": "China"
  },
  {
    "id": 21,
    "name": "Zhang Min",
    "experience": 4,
    "lat": 31.2306,
    "lng": 121.4769,
    "city": "Shanghai",
    "country": "China"
  },
  {
    "id": 22,
    "name": "Ahmed Hassan",
    "experience": 8,
    "lat": 30.0444,
    "lng": 31.2357,
    "city": "Cairo",
    "country": "Egypt"
  },
  {
    "id": 23,
    "name": "Omar Ali",
    "experience": 5,
    "lat": 30.0561,
    "lng": 31.2394,
    "city": "Cairo",
    "country": "Egypt"
  },
  {
    "id": 24,
    "name": "Nadia Mahmoud",
    "experience": 6,
    "lat": 30.0654,
    "lng": 31.2293,
    "city": "Cairo",
    "country": "Egypt"
  },
  {
    "id": 25,
    "name": "Lars Johansson",
    "experience": 7,
    "lat": 59.3293,
    "lng": 18.0686,
    "city": "Stockholm",
    "country": "Sweden"
  },
  {
    "id": 26,
    "name": "Mia Karlsson",
    "experience": 4,
    "lat": 59.3345,
    "lng": 18.0632,
    "city": "Stockholm",
    "country": "Sweden"
  },
  {
    "id": 27,
    "name": "Erik Svensson",
    "experience": 5,
    "lat": 59.3381,
    "lng": 18.0678,
    "city": "Stockholm",
    "country": "Sweden"
  },
  {
    "id": 28,
    "name": "Miguel Torres",
    "experience": 6,
    "lat": 19.4326,
    "lng": -99.1332,
    "city": "Mexico City",
    "country": "Mexico"
  },
  {
    "id": 29,
    "name": "Isabella Ramirez",
    "experience": 4,
    "lat": 19.451,
    "lng": -99.1234,
    "city": "Mexico City",
    "country": "Mexico"
  },
  {
    "id": 30,
    "name": "Carlos Gomez",
    "experience": 7,
    "lat": 19.4222,
    "lng": -99.1339,
    "city": "Mexico City",
    "country": "Mexico"
  },
  {
    "id": 31,
    "name": "Samantha Lee",
    "experience": 6,
    "lat": -33.8688,
    "lng": 151.2093,
    "city": "Sydney",
    "country": "Australia"
  },
  {
    "id": 32,
    "name": "James Wilson",
    "experience": 4,
    "lat": -33.8737,
    "lng": 151.2069,
    "city": "Sydney",
    "country": "Australia"
  },
  {
    "id": 33,
    "name": "Chloe White",
    "experience": 5,
    "lat": -33.8572,
    "lng": 151.2151,
    "city": "Sydney",
    "country": "Australia"
  },
  {
    "id": 34,
    "name": "Antonio Rossi",
    "experience": 7,
    "lat": 41.9028,
    "lng": 12.4964,
    "city": "Rome",
    "country": "Italy"
  },
  {
    "id": 35,
    "name": "Giulia Bianchi",
    "experience": 3,
    "lat": 41.9009,
    "lng": 12.4828,
    "city": "Rome",
    "country": "Italy"
  },
  {
    "id": 36,
    "name": "Luca Verdi",
    "experience": 6,
    "lat": 41.8974,
    "lng": 12.4745,
    "city": "Rome",
    "country": "Italy"
  }
]
